[
  {
    "id": 100,
    "category": "VisitTemple",
    "title": "วัดหน้าพระเมรุ",
    "description": "เป็นวัดยอดนิยมของนักท่องเที่ยวที่มักเดินทางไปนมัสการ หลวงพ่อพระพุทธนิมิตวิชิตมารโมลีศรีสรรเพชญ์บรมไตรโลกนาถ ที่ศักดิ์สิทธิ์แห่งหนึ่งในกรุงศรีอยุธยา.",
    "imgpath": "assets/img/backgrounds/img1.png",
    "lat" : "14.362529",
    "lng" : "100.558993"
  },
  {
    "id": 101,
    "category": "VisitTemple",
    "title": "วัดญาณเสน",
    "description": "วัดโบราณที่ได้ขึ้นทะเบียนเป็นมรดกโลก แต่กลับมีประวัติที่ลึกลับ ไม่มีใครรู้ที่มาที่ไป จุดเด่นของวัดคือเจดีย์ประธานย่อมุมไม้สิบสองลักษณะคล้ายเจดีย์ศรีสุริโยทัย ...",
    "imgpath": "assets/img/backgrounds/img1.png",
    "lat" : "14.359351",
    "lng" : "100.563796"
  },
  {
    "id": 102,
    "category": "VisitTemple",
    "title": "วัดใหม่ไชยวิชิต",
    "description": "ตั้งอยู่ริมแม่น้ำลพบุรีด้านทิศเหนือของเกาะเมืองติดกับพระราชวังหลวงโบราณ สร้างขึ้นในสมัยรัชกาลที่ ๓ โดยพระยาไชยวิชิต (เผือก) ...",
    "imgpath": "assets/img/backgrounds/img1.png",
    "lat" : "14.360516",
    "lng" : "100.557449"
  },
  {
    "id": 103,
    "category": "VisitTemple",
    "title": "พระราชวังโบราณ ",
    "description": "เป็นที่ประทับของพระมหากษัตริย์ในสมัยกรุงศรีอยุธยา แต่เดิมอยู่ในบริเวณที่เป็นวัดพระศรีสรรเพชญ์ ต่อมาเมื่อสมัยพระบรมไตรโลกนาถ พ.ศ.1991 โป...",
    "imgpath": "assets/img/backgrounds/img1.png",
    "lat" : "14.359096",
    "lng" : "100.558137"
  },
  {
    "id": 104,
    "category": "VisitTemple",
    "title": "วัดแม่นางปลื้ม",
    "description": "วัดแม่นางปลื้ม หนึ่งในสองเจดีย์ฐานสิงห์ล้อมในจังหวัดพระนครศรีอยุธยา งามพร้อมด้วยโบสถ์และวิหารที่ได้รับการบูรณะในสมัยรัชกาลที่ 3 ...",
    "imgpath": "assets/img/backgrounds/img1.png",
    "lat" : "14.368314",
    "lng" : "100.569394"
  },
  {
    "id": 105,
    "category": "VisitTemple",
    "title": "วัดมงกุฏ",
    "description": "วัดมงกุฎ ตั้งอยู่ทางตะวันออกเฉียงเหนือของเกาะเมือง อยู่ใกล้ๆกับ วัดพร้าว ซึ่งในย่านนี้ครั้งหนึ่งเคยเป็นชุมชนของพวกพราหมณ์ในช่วงอยุธยา โดยเป็นแหล่งผลิตและค้าขาย ...",
    "imgpath": "assets/img/backgrounds/img1.png",
    "lat" : "14.370891",
    "lng" : "100.568611"
  },
  {
    "id": 106,
    "category": "VisitTemple",
    "title": "วัดอินทราราม",
    "description": " เป็นวัดสำคัญของสมัยกรุงธนบุรีเป็นราชธานี เป็นวัดอนุสรณ์สันติสถานที่สมเด็จพระเจ้ากรุงธนบุรี มหาวีระกษัตริย์ของไทยเราทรงประกอบพระราชกุศล ...",
    "imgpath": "assets/img/backgrounds/img1.png",
    "lat" : "14.365497",
    "lng" : "100.568031"
  },
  {
    "id": 107,
    "category": "VisitTemple",
    "title": "วัดวงษ์ฆ้อง",
    "description": "มีชื่อเดิมว่า วัดโรงฆ้อง ถือว่าเป็นวัดเก่าแก่วัดหนึ่งในอำเภอพระนครศรีอยุธยา ตั้งอยู่ตำบลท่าวาสุกรี เพราะมีประวัติว่า สร้างมาแต่สมัยอยุธยาตอนต้น",
    "imgpath": "assets/img/backgrounds/img1.png",
    "lat" : "14.363720",
    "lng" : "100.566936"
  },
  {
    "id": 108,
    "category": "VisitTemple",
    "title": "วัดมหาโลก",
    "description": "ตั้งอยู่เลขที่ 73 บ้านม้าโรจน์ หมู่ที่ 3 ตำบลหัวรอ อำเภอพระนครศรีอยุธยา สังกัดคณะสงฆ์มหานิกาย มีที่ดินตั้งวัดเนื้อที่ 12 ไร่ 3งาน 4 ตารางวาโฉนดเลขที่ 10315 อาณาเขต ...",
    "imgpath": "assets/img/backgrounds/img1.png",
    "lat" : "14.370572",
    "lng" : "100.574923"
  },
  {
    "id": 109,
    "category": "VisitTemple",
    "title": "วัดสามวิหาร",
    "description": "เป็นวัดในพระพุทธศาสนาเถรวาท สังกัดคณะสงฆ์มหานิกาย ตั้งอยู่ที่ เลขที่ ๕๖ หมู่ ๔ บ้านคลองบางขวด ตำบลหัวรอ อำเภอพระนครศรีอยุธยา จังหวัดพระนครศรีอยุธยา ...",
    "imgpath": "assets/img/backgrounds/img1.png",
    "lat" : "14.370113",
    "lng" : "100.572988"
  },
  {
    "id": 111,
    "category": "VisitTemple",
    "title": "วัดธรรมิกราช",
    "description": "เป็นวัดที่สำคัญวัดหนึ่งของพระนครศรีอยุธยา ตั้งอยู่ทางด้านทิศตะวันออกของพระบรมมหาราชวัง ปัจจุบันตั้งอยู่ที่ตำบลท่าวาสุกรี อำเภอพระนครศรีอยุธยา ...",
    "imgpath": "assets/img/backgrounds/img1.png",
    "lat" : "14.359642",
    "lng" : "100.561537"
  },
  {
    "id": 112,
    "category": "VisitTemple",
    "title": "ตำหนักปู่แดง วัดสหกรณ์",
    "description": "สถานที่บูชาทางศาสนาในตำบล สนับทึบ ที่อยู่: ตำบล สนับทึบ อำเภอ วังน้อย พระนครศรีอยุธยา 13170 โทรศัพท์: 089 226 0593",
    "imgpath": "assets/img/backgrounds/img1.png",
    "lat" : "14.293720",
    "lng" : "100.815364"
  },
  {
    "id": 113,
    "category": "VisitTemple",
    "title": "วัดลอดช่อง",
    "description": "วัดลอดช่อง (Wat Lot Chong): ต.บ้านป้อม อ.พระนครศรีอยุธยา จ.พระนครศรีอยุธยา 13000, Ban Pom, Phra Nakhon Si Ayudhya, Phra Nakhon Si Ayutthaya, 13000.",
    "imgpath": "assets/img/backgrounds/img1.png",
    "lat" : "14.347230",
    "lng" : "100.541477"
  },
  {
    "id": 114,
    "category": "VisitTemple",
    "title": "วัดไชยวัฒนาราม",
    "description": "เป็นวัดเก่าแก่สมัยอยุธยาตอนปลายในจังหวัดพระนครศรีอยุธยา ตั้งอยู่ที่ ตำบลบ้านป้อม อำเภอพระนครศรีอยุธยา จังหวัดพระนครศรีอยุธยา ...",
    "imgpath": "assets/img/backgrounds/img1.png",
    "lat" : "14.343151",
    "lng" : "100.541773"
  },
   {
    "id": 115,
    "category": "VisitTemple",
    "title": "วัดกลางปากกราน (วัดคลองตะเคียน)",
    "description": "ตั้งอยู่ที่ตำบลปากกราน อ.พระนครศรีอยุธยา จ. พระนครศรีอยุธยา ตรงข้ามกับวัดกษัตรา. ไปทางวัดไชยวัฒนาราม ห่างกันประมาณ 800 เมตร",
    "imgpath": "assets/img/backgrounds/img1.png",
    "lat" : "14.337658",
    "lng" : "100.547550"
  },
   {
    "id": 116,
    "category": "VisitTemple",
    "title": "โบราณสถานวัดนาค",
    "description": "ประวัติวัดนาค ก่อสร้างเมื่อปี พุทธศักราช 2375 สังกัดคณะสงฆ์มหานิกาย ในพื้นที่ บ.พิตเพียน ม.3 ต.พิตเพียน อ.มหาราช จ.พระนครศรีอยุธยา...",
    "imgpath": "assets/img/backgrounds/img1.png",
    "lat" : "14.337554",
    "lng" : "100.546117"
  },
  {
    "id": 117,
    "category": "VisitTemple",
    "title": "วิหารพระมงคลบพิตร",
    "description": "ตั้งอยู่ติดกับพระราชวังโบราณ ทางทิศใต้ของวัดพระศรีสรรเพชญ์ เป็นโบราณสถานสำคัญแห่งหนึ่งในจังหวัดพระนครศรีอยุธยา ...",
    "imgpath": "assets/img/backgrounds/img1.png",
    "lat" : "14.354898",
    "lng" : "100.557719"
  },
   {
    "id": 118,
    "category": "VisitTemple",
    "title": "วัดพนัญเชิง",
    "description": "วัดที่ได้รับการบูรณะใหม่ มีสถูป พระนอนขนาดใหญ่ และพระพุทธรูปปางสมาธิขนาดเล็กประดิษฐานเรียงกันเป็นแถว",
    "imgpath": "assets/img/backgrounds/img1.png",
    "lat" : "14.344298",
    "lng" : "100.578962"
  },
   {
    "id": 119,
    "category": "VisitTemple",
    "title": "วัดพุทไธศวรรค์",
    "description": "เป็นพระอารามหลวงที่ใหญ่โตและมีชื่อเสียงวัดหนึ่ง ปรากฏตามตำนานว่าสมเด็จพระรามาธิบดีที่ 1 ...",
    "imgpath": "assets/img/backgrounds/img1.png",
    "lat" : "14.339554",
    "lng" : "100.558235"
  },
  {
    "id": 120,
    "category": "VisitTemple",
    "title": "วัดมหาธาตุ",
    "description": "เป็นหนึ่งในวัดในเขตอุทยานประวัติศาสตร์พระนครศรีอยุธยา วัดมหาธาตุเป็นวัดที่มีความสำคัญยิ่งในสมัยกรุงศรีอยุธยา ...",
    "imgpath": "assets/img/backgrounds/img1.png",
    "lat" : "14.356968",
    "lng" : "100.567507"
  },
   {
    "id": 121,
    "category": "VisitTemple",
    "title": "วัดพระศรีสรรเพชญ์",
    "description": "ตั้งอยู่ในเขตตำบลประตูชัย สร้างขึ้นในบริเวณที่เป็นพระราชวังหลวงในรัชกาลสมเด็จพระรามาธิบดีที่ ๑ (พระเจ้าอู่ทอง) ถึงแผ่นดินสมเด็จพระบรมไตรโลกนาถพ.ศ...",
    "imgpath": "assets/img/backgrounds/img1.png",
    "lat" : "14.355775",
    "lng" : "100.558237"
  },
   {
    "id": 122,
    "category": "VisitTemple",
    "title": "วัดใหญ่ชัยมงคล",
    "description": "วัดที่ได้รับการบูรณะใหม่ มีสถูป พระนอนขนาดใหญ่ และพระพุทธรูปปางสมาธิขนาดเล็กประดิษฐานเรียงกันเป็นแถว",
    "imgpath": "assets/img/backgrounds/img1.png",
    "lat" : "14.345851",
    "lng" : "100.592559"
  },
  {
    "id": 123,
    "category": "VisitTemple",
    "title": "วัดกษัตราธิราชวรวิหาร",
    "description": " ตั้งอยู่ริมแม่น้ำเจ้าพระยาฝั่งตะวันตก ต.บ้านป้อม อ.พระนครศรีอยุธยา จ.พระนครศรีอยุธยา เป็นวัดโบราณ ปรากฏหลักฐานพบว่ามีมาตั้งแต่สมัยกรุงศรีอยุธยา ...",
    "imgpath": "assets/img/backgrounds/img1.png",
    "lat" : "14.351480",
    "lng" : "100.544047"
  },
   {
    "id": 124,
    "category": "VisitTemple",
    "title": "วัดภูเขาทอง อยุธยา",
    "description": "ป็นวัดโบราณในจังหวัดพระนครศรีอยุธยา ... มีเจดีย์ใหญ่ที่ชื่อว่า เจดีย์ภูเขาทอง. เจดีย์ภูเขาทอง เป็นเจดีย์ที่สูงใหญ่ตั้งอยู่กลางทุ่งนา สามารถเห็นได้แต่ไกล เมื่อปี พ.ศ....",
    "imgpath": "assets/img/backgrounds/img1.png",
    "lat" : "14.369067",
    "lng" : "100.539783"
  },
  {
    "id": 125,
    "category": "VisitTemple",
    "title": "วัดมเหยงคณ์",
    "description": "ดิมเป็นพระอารามหลวงฝ่ายวิปัสสนาธุระ ที่เคยสำคัญยิ่งมาในอดีตสมัยอยุธยา โดยสมเด็จพระบรมราชาธิราชที่ ๒(เจ้าสามพระยา)ทรงสร้างขึ้น ...",
    "imgpath": "assets/img/backgrounds/img1.png",
    "lat" : "14.363833",
    "lng" : "100.595061"
  },
   {
    "id": 126,
    "category": "VisitTemple",
    "title": "วัดช้าง",
    "description": "ตั้งอยู่นอกเกาะเมืองศรีอยุธยาทางทิศตะวันตกของวัดหน้าพระเมรุ ... ซึ่งคงจะหมายถึง วัดหัสดาวาส ซึ่งมีชื่อเรียกอีกชื่อหนึ่งว่าวัดช้าง",
    "imgpath": "assets/img/backgrounds/img1.png",
    "lat" : "14.361405",
    "lng" : "100.594708"
  },
   {
    "id": 127,
    "category": "VisitTemple",
    "title": "วัดใหม่คลองสระบัว",
    "description": "อยู่ที ถนน คลองสระบัว ตำบล ท่าวาสุกรี อำเภอ พระนครศรีอยุธยา จังหวัด พระนครศรีอยุธยา 13000",
    "imgpath": "assets/img/backgrounds/img1.png",
    "lat" : "14.361777",
    "lng" : "100.560488"
  },


  {
    "id": 200,
    "category": "VisitResturent",
    "title": "ตลาดน้ำอโยธยา",
    "description": "หนึ่งในที่เที่ยวตลาดน้ำใกล้กรุงเทพฯ ที่ที่คุณจะเพลิดเพลินกับการเลือกซื้อของกินอร่อย ๆ และช้อปปิ้งท่ามกลางการจำลองวิถีชีวิตเรียบง่ายในสมัย ...",
    "imgpath": "assets/img/backgrounds/img2.png",
    "lat" : "14.358990",
    "lng" : "100.593328"
  },
  {
    "id": 201,
    "category": "VisitResturent",
    "title": "ร้านกาแฟสดเย็นฉ่ำ",
    "description": "ร้านง่ายๆ แต่แฝงไปด้วยความฮิป, ม็อคค่าเย็นอร่อยใช้ได้, กาแฟหอมเข้ม เต็มรสชาติกาแฟสด ราคาไม่แพง",
    "imgpath": "assets/img/backgrounds/img2.png",
    "lat" : "14.360383",
    "lng" : "100.592034"
  },
  {
    "id": 203,
    "category": "VisitResturent",
    "title": "ตลาดน้ำคลองสระบัว",
    "description": "ตั้งอยู่บริเวณอุทยานประวัติศาสตร์อยุธยา นอกเกาะเมืองด้านทิศเหนือ ใกล้กับวัดหน้าพระเมรุ เมื่อใครมาเยือนสัมผัสแรกที่ได้เห็นก็คือทุ่งนาเขียวขจื",
    "imgpath": "assets/img/backgrounds/img2.png",
    "lat" : "14.366872",
    "lng" : "100.568006"
  },
  {
    "id": 204,
    "category": "VisitResturent",
    "title": "ครัวแม่อุไรวรรณ",
    "description": "สดอร่อยราคามิตรภาพ, ร้านบรรยากาศดี อยู่ริมแม่น้ำ แต่รสชาติธรรมดา ไม่จัดจ้าน, ร้านอาหารในซอยลึก แต่คุ้ม",
    "imgpath": "assets/img/backgrounds/img2.png",
    "lat" : "14.364871",
    "lng" : "100.565311"
  },
  {
    "id": 205,
    "category": "VisitResturent",
    "title": "ครัวคุณต้อม",
    "description": "เจอร้านนี้ในกลุ่มอยุธยา เห็นบรรยากาศดี เลยชวนคนที่บ้านมาลองชิมดู เป็นร้านอาหารกึ่งเกสต์เฮ้าส์ บรรยากาศดีสบายๆเหมือนนั่งทานอยู่ที่บ้าน ถ้ามาตอนกลางวันแนะนำริมน้ำด้านใน ...",
    "imgpath": "assets/img/backgrounds/img2.png",
    "lat" : "14.370367",
    "lng" : "100.575523"
  },
  {
    "id": 206,
    "category": "VisitResturent",
    "title": "ร้านอาหารคุ้มทองหล่อ",
    "description": "เปิดร้านมา 10 กว่าปีแล้ว ที่ร้านจะเน้นการตกแต่งให้ดูโบราณ เพื่อจะได้รู้ว่ามาถึงอยุธยาแล้วนะ ...",
    "imgpath": "assets/img/backgrounds/img2.png",
    "lat" : "14.341450",
    "lng" : "100.540250"
  },
  {
    "id": 207,
    "category": "VisitResturent",
    "title": "ร้านกาแฟตาสน",
    "description": "อร่อยมากค่ะ คุณภาพดี เจ้าของร้านน่ารักแต่ไม่เท่าลูกค่ะ บรรยากาศน่านั่งสุดๆ มีมุมถ่ายรูปสวยๆเยอะเลยค่. ... ",
    "imgpath": "assets/img/backgrounds/img2.png",
    "lat" : "14.344175",
    "lng" : "100.541325"
  },
  {
    "id": 208,
    "category": "VisitResturent",
    "title": "ตลาดน้ำทุ่งบัวชม",
    "description": "ตลาดน้ำแห่งใหม่ ที่กำลังได้รับความนิยมจากนักท่องเที่ยวเป็นอย่างมากใน จังหวัดพระนครศรีอยุธยา",
    "imgpath": "assets/img/backgrounds/img2.png",
    "lat" : "14.290481",
    "lng" : "100.818599"
  },
  {
    "id": 209,
    "category": "VisitResturent",
    "title": "ป้าแดงอาหารตามสั่ง",
    "description": "ร้านเพิงข้างทาง มีโต๊ะให้นั่ง 5-6 โต๊ะ ป้าแดงทำเองทุกอย่างตั้งแต่เสริฟ เก็บตังค์ เก็บโต๊ะ และแน่นอน...ทำอาหารด้วย ป้าแดงทำอาหารเร็วมากกกก.",
    "imgpath": "assets/img/backgrounds/img2.png",
    "lat" : "14.290980",
    "lng" : "100.815513"
  },
  {
    "id": 210,
    "category": "VisitResturent",
    "title": "ลูกชิ้นจัมโบ้ เจ๊แก้ว",
    "description": "มีเมนูอันหลากหลายให้ได้เลือกลิ้มลองกันลายตาทีเดียว ทั้งหมูสับลูกชิ้นจัมโบ้ บะหมี่แห้ง ... และหอมกลิ่นมะนาวแท้ๆ ยิ่งได้ความหนึบหนับของเอ็นแก้ว และลูกชิ้นจัมโบ้ โอ้โฮ ...",
    "imgpath": "assets/img/backgrounds/img2.png",
    "lat" : "14.360397",
    "lng" : "100.593016"
  },
  {
    "id": 211,
    "category": "VisitResturent",
    "title": "CK.Ayothaya",
    "description": "There aren't enough food, service, value or atmosphere ratings for Ck. Ayothaya Authentic Thai Cuisine, Thailand yet. Be one of the first to write a review!",
    "imgpath": "assets/img/backgrounds/img2.png",
    "lat" : "14.361080",
    "lng" : "100.592857"
  },
 {
    "id": 212,
    "category": "VisitResturent",
    "title": "Halal Food in Floating Market",
    "description": "เรือนเย็นตาโฟ Muslim Halal Food - 99/15 หมู่ 5 ต.ลุมพลี, 13000 อำเภอพระนครศรีอยุธยา",
    "imgpath": "assets/img/backgrounds/img2.png",
    "lat" : "14.360037",
    "lng" : "100.593622"
  },
  {
    "id": 213,
    "category": "VisitResturent",
    "title": "ก๋วยเตี๋ยวเรืออยุธยา",
    "description": "ร้านก๋วยเตี๋ยวเรืออยุธยาเจ้าอร่อย ให้คุณได้แวะนั่งกินจนอิ่มท้อง มาเที่ยวอยุธยาครั้งหน้า เห็นทีว่าเมนูก๋วยเตี๋ยวเรือ ต้องจัดเป็นหนึ่งในเมนูของกินที่คุณไม่ควรพลาด",
    "imgpath": "assets/img/backgrounds/img2.png",
    "lat" : "14.358568",
    "lng" : "100.593493"
  },
  {
    "id": 214,
    "category": "VisitResturent",
    "title": "โรตีสายไหม แม่สมจิตร",
    "description": "านนี้ทำเองค่ะ มีให้เลือกหลายอย่าง เน้นเป็นขนมถาด เป็นขนมชั้น ข้าวเหนียวแดง วุ้น ข้าวเหนียวสังขยา เม็ดขนุน ฝอยทอง ขนมเผื...",
    "imgpath": "assets/img/backgrounds/img2.png",
    "lat" : "14.358354",
    "lng" : "100.593283"
  },
  {
    "id": 215,
    "category": "VisitResturent",
    "title": "ร้านขนมจีนกู้ชาติ ตลาดน้ำอโยธยา",
    "description": "ร้านขนมจีนกู้ชาติ ตลาดน้ำอโยธยา. 31 次赞. รับประกันอร่อยไม่เสียดายตัง(อิ่มด้วยคับ)45บาทขอรับ.",
    "imgpath": "assets/img/backgrounds/img2.png",
    "lat" : "14.358323",
    "lng" : "100.592871"
  },
  {
    "id": 216,
    "category": "VisitResturent",
    "title": "Froz Yoghurt",
    "description": "เคยทานโยเกิร์ตร้านนี้ชอบค่ะ ครั้งนี้เลยมาลองเครื่องดื่มบ้างค่ะ - Salted Plum Soda 135 บาท จะเป็นน้ำพลัมโซดา ท้อปปิ้งบนสุดด้วยโยเกิร์ต สามารถเลือกรสได้ ...",
    "imgpath": "assets/img/backgrounds/img2.png",
    "lat" : "14.352453",
    "lng" : "100.597656"
  },
  {
    "id": 217,
    "category": "VisitResturent",
    "title": "ร้านอาหารครัวไทย",
    "description": " เครื่องแน่นจนแทบไม่เห็นเส้น! ที่ “ก๋วยเตี๋ยวไข่กรุงศรี” กุ้งสดเนื้อเด้งมันเน้น ๆ ปูก็ไข่แน่นจนบังเนื้อ เนื้อหวานไข่มันกับน้ำยำรสแซ่บ เอาอะไรมาแลกก็ไม่ยอม!",
    "imgpath": "assets/img/backgrounds/img2.png",
    "lat" : "14.352393",
    "lng" : "100.597311"
  },
  {
    "id": 218,
    "category": "VisitResturent",
    "title": "ก๋วยเตี๋ยวไข่กรุงศรี",
    "description": "ใส่รายละเอียด",
    "imgpath": "assets/img/backgrounds/img2.png",
    "lat" : "14.351753",
    "lng" : "100.596380"
  },
  {
    "id": 219,
    "category": "VisitResturent",
    "title": "นั่งเล่น By Pitchapat",
    "description": "เลขที่11/1 หมู่10 ตำบลกะมัง อ.เมือง จ.อยุธยา, เทศบาลนครพระนครศรีอยุธยา 13000 - ได้คะแนน 4.8 อิงตาม รีวิว 10 รายการ",
    "imgpath": "assets/img/backgrounds/img2.png",
    "lat" : "14.351479",
    "lng" : "100.595311"
  },
  {
    "id": 220,
    "category": "VisitResturent",
    "title": "ร้านอโยธยาปิ้งย่าง",
    "description": "ปิดวิวัฒนาการเตาหมูกระทะ กับรูปทรงโค้งเจาะรู ปิ้งย่างต้มน้ำได้ในคราวเดียว พบมีตำนานเรื่องเล่าจากมองโกล เดินทางสู่ ญี่ปุ่น เกาหลี และมาจบที่อโยธยา ... ในปี 1936 ได้มีการเปิดร้านเนื้อย่างเจงกิสข่านครั้งแรกขึ้นในโตเกียว ",
    "imgpath": "assets/img/backgrounds/img2.png",
    "lat" : "14.351172",
    "lng" : "100.594695"
  },
   {
    "id": 221,
    "category": "VisitResturent",
    "title": "อยุธยาย่างเกาหลี",
    "description": "บริการอาหารชุด 130 บาท จะมารับประทานกันกี่คนก็ได้ไม่จำกัด ไม่ได้คิดเป็นรายหัวแบบบุฟเฟต์",
    "imgpath": "assets/img/backgrounds/img2.png",
    "lat" : "14.350622",
    "lng" : "100.594126"
  },
  {
    "id": 222,
    "category": "VisitResturent",
    "title": "Yenya' Cafe",
    "description": "ร้านกาแฟขนาดเล็กๆแต่นั่งสบายๆ มีขนมเค้กเนยสด บราวนี่ ขนมโดนัทที่ทำเอง มีคุณภาพและอร่อย คอยบริการ ทุกๆท่านที่มาใช้บริการ. กาแฟรสชาติเข้ม หอม อร่อย.",
    "imgpath": "assets/img/backgrounds/img2.png",
    "lat" : "14.349673",
    "lng" : "100.591882"
  },
  {
    "id": 223,
    "category": "VisitResturent",
    "title": "Coffee Pleng",
    "description": "ร้านกาแฟสด และขนมทานเล่น. เปิดเวลา 08:00. โทรเลยดูเส้นทางรับใบเสนอราคาWhatsAppส่งข้อความถึงเราติดต่อเราหาโต๊ะดูเมนูนัดหมายส่งคำสั่งซื้อ. ติดต่อเรา.",
    "imgpath": "assets/img/backgrounds/img2.png",
    "lat" : "14.351419",
    "lng" : "100.577930"
  },
  {
    "id": 224,
    "category": "VisitResturent",
    "title": "ร้านอาหารบ้านส้มตำ",
    "description": "บรรยากาศดี ริมแม่น้ำเจ้าพระยา, ร้านส้มตำในทำเนียบมิชลินไกด์, อาหารรสชาติดีนะครับ แต่ผมว่าจานเล็กไปนิดเทียบกับราคา",
    "imgpath": "assets/img/backgrounds/img2.png",
    "lat" : "14.351474",
    "lng" : "100.580633"
  },
  {
    "id": 225,
    "category": "VisitResturent",
    "title": "ร้านโรตีสายไหมแม่ป้อม (ร้านลูก)",
    "description": "เป็นร้านโรตีเล็กๆ อยู่บน ถ.อู่ทอง มาจากกรุงเทพ ถ.โรจนะ ข้ามสะพานปรีดี เข้าเมืองอยุธยา ลงสะพานแล้วเลี้ยวซ้ายเข้าถนนที่วนลอดใต้สะพาน ...",
    "imgpath": "assets/img/backgrounds/img2.png",
    "lat" : "14.349819",
    "lng" : "100.580951"
  },
  {
    "id": 226,
    "category": "VisitResturent",
    "title": "แพกรุงเก่า",
    "description": "ร้านอาหารรสเด็ดเก่าแก่ของอยุธยา, ชอบแกงเขียวหวานลูกชิ้นปลากรายผัดแห้งค่ะ, บรรยากาศดี กุ้งอร่อย",
    "imgpath": "assets/img/backgrounds/img2.png",
    "lat" : "14.349153",
    "lng" : "100.581178"
  },
  {
    "id": 227,
    "category": "VisitResturent",
    "title": "ท่าข้ามเรือวัดพนัญเชิง",
    "description": "ตั้งอยู่ในท้องที่ตำบลคลองสวนพลู ... 1 กิโลเมตร ก็จะเห็นวัดพนัญเชิงอยู่ทางขวามือ หรือนั่งเรือข้ามฟากจากป้อมเพชร ค่าเรือ 4 บาท ข้อแนะนำ",
    "imgpath": "assets/img/backgrounds/img2.png",
    "lat" : "14.345872",
    "lng" : "100.578325"
  },
  {
    "id": 228,
    "category": "VisitResturent",
    "title": "ร้านคุณตั้มของฝาก",
    "description": "อาหารหลากหลาย มีปลานีโม่ด้วย, ร้านนั่งสบาย, ร้านเล็กๆ ที่ป้ายโฏษณาเต็มเมือง - Wongnai. ... 80% ของรีวิวบอกว่าร้านนี้เหมาะกับ เพื่อนฝูง ...",
    "imgpath": "assets/img/backgrounds/img2.png",
    "lat" : "14.343513",
    "lng" : "100.579693"
  },




  {
    "id": 300,
    "category": "VisitEtc.",
    "title": "บ้านแพรทอง",
    "description": "ถนน อู่ทอง พระนครศรีอยุธยา. บอกทางในการขับรถ ขี่จักรยาน เดินเท้า ใช้บริการขนส่งสาธารณะบนแผนที่เพื่อไปที่ บ้านแพรทอง",
    "imgpath": "assets/img/backgrounds/img3.png",
    "lat" : "14.360674",
    "lng" : "100.562967"
  },
   {
    "id": 301,
    "category": "VisitEtc.",
    "title": "รุ่งโรจน์ฟาร์ม",
    "description": "เรื่องการไถ่ชีวิตโค-กระบือนี้เป็นเรื่องใหม่สำหรับใครบางคน ด้วยเหตุผลมากมายอีกทั้งราคาโค-กระบือพวกนี้มากเกินไปสำหรับคนที่ไม่ ...",
    "imgpath": "assets/img/backgrounds/img3.png",
    "lat" : "14.369272",
    "lng" : "100.569917"
  },
   {
    "id": 302,
    "category": "VisitEtc.",
    "title": "บริษัท ซีพี ออลล์ จำกัด (มหาชน)",
    "description": "หนึ่งในกลุ่มธุรกิจของเครือเจริญโภคภัณฑ์ ก่อตั้งขึ้นเมื่อปี 2531. บริษัทเป็นผู้ดำเนินธุรกิจค้าปลีกประเภทร้านสะดวกซื้อ 7-Eleven ...",
    "imgpath": "assets/img/backgrounds/img3.png",
    "lat" : "14.363327",
    "lng" : "100.568497"
  },
   {
    "id": 303,
    "category": "VisitEtc.",
    "title": "โรงคั่วกาแฟ อเมซอน",
    "description": "จัดตั้งเพื่อให้คนไทยได้รับบริการและดื่มกาแฟที่มีรสชาติตามมาตรฐานคาเฟ่อเมซอนในราคาที่เข้าถึงได้ และมีการใส่ใจในทุกขั้นตอนการผลิต ...",
    "imgpath": "assets/img/backgrounds/img3.png",
    "lat" : "14.291751",
    "lng" : "100.807510"
  },
  {
    "id": 304,
    "category": "VisitEtc.",
    "title": "หอพัก m&p",
    "description": "ที่พักในตำบล สนับทึบ ที่อยู่: Unnamed Road ตำบล สนับทึบ อำเภอ วังน้อย พระนครศรีอยุธยา 13170",
    "imgpath": "assets/img/backgrounds/img3.png",
    "lat" : "14.294569",
    "lng" : "100.809154"
  },
   {
    "id": 302,
    "category": "VisitEtc.",
    "title": "Baan Suan Yen Sabai",
    "description": "ตั้งอยู่ในจังหวัดพระนครศรีอยุธยา และให้บริการที่พักพร้อมอินเทอร์เน็ตไร้สาย (WiFi) ฟรี ที่พักตั้งอยู่ห่างจากวัดไชยวัฒนาราม 1.2 กม.",
    "imgpath": "assets/img/backgrounds/img3.png",
    "lat" : "14.338071",
    "lng" : "100.545424"
  },


  {
    "id": 400,
    "category": "VisitOneDay",
    "title": "One Day Trip 1",
    "description": "ประกอบด้วย 1.บ้านแพรทอง 2.วัดหน้าพระเมรุ 3.วัดใหม่ไชยวิชิต 4.พระราชวังโบราณ 5.วัดญาณเสน 6.ตลาดน้ำอโยธยา 7.ร้านกาแฟสดเย็นฉ่ำ",
    "imgpath": "assets/img/all-01.png"
    
  },
  {
    "id": 401,
    "category": "VisitOneDay",
    "title": "One Day Trip 2",
    "description": "ประกอบด้วย 1.ตลาดน้ำคลองสระบัว 2.วัดมงกุฏ 3.วัดแม่นางปลื้ม 4.วัดอินทราราม 5.วัดวงษ์ฆ้อง 6.ครัวแม่อุไรวรรณ",
    "imgpath": "assets/img/all-01.png"
   
  },
  {
    "id": 402,
    "category": "VisitOneDay",
    "title": "Go Eat Trip 3",
    "description": "ประกอบด้วย 1.วัดสามวิหาร 2.รุ่งโรจน์ฟาร์ม 3.วัดแม่นางปลื้ม 4.วัดอินทราราม 5.บริษัท ซีพี ออลล์ จำกัด มหาชน 6.ครัวคุณต้อม 7.วัดมหาโลก",
    "imgpath": "assets/img/all-01.png"
   
  },


  {
    "id": 500,
    "category": "VisitGoEat",
    "title": "Go Eat Trip 1",
    "description": "ประกอบด้วย 1.ส้มตำถาดอยุธยา 2.CK.Ayothaya 3.ลูกชิ้นจัมโบ้ เจ๊แก้ว 4.โรตีสายไหม แม่สมจิตร 5.ก๋วยเตี๋ยวเรืออยุธยา 6.Halal Food in Floating Market",
    "imgpath": "assets/img/backgrounds/img2.png"
    
  },
  {
    "id": 501,
    "category": "VisitGoEat",
    "title": "Go Eat Trip 2",
    "description": "ประกอบด้วย 1.ร้านอาหารครัวไทย 2.Froz Yoghurt 3.ก๋วยเตี๋ยวไข่กรุงศรี 4.อยุธยาย่างเกาหลี 5.Yenya' Cafe 6.ร้านอโยธยาปิ้งย่าง 7.นั่งเล่น By Pitchapat",
    "imgpath": "assets/img/backgrounds/img2.png"
   
  },
  {
    "id": 502,
    "category": "VisitGoEat",
    "title": "Go Eat Trip 3",
   "description": "ประกอบด้วย 1.ท่าข้ามเรือวัดพนัญเชิง 2.ร้านคุณตั้มของฝาก 3.แพกรุงเก่า 4.ร้านโรตีสายไหมแม่ป้อม (ร้านลูก) 5.ร้านอาหารบ้านส้มตำ 6.Coffee Pleng",
    "imgpath": "assets/img/backgrounds/img2.png"
   
  },

  {
    "id": 600,
    "category": "VisitTempleTrip",
    "title": "Temple Trip 1",
    "description": "ประกอบด้วย 1.วัดพุทไธสวรรค์ 2.วัดไชยวัฒนาราม 3.วิหารพระมงคลบพิตร 4.วัดพระศรีสรรเพชญ์ 5.วัดมหาธาตุ 6.วัดพนัญเชิง",
    "imgpath": "assets/img/backgrounds/img1.png"
    
  },
  {
    "id": 601,
    "category": "VisitTempleTrip",
    "title": "Temple Trip 2",
    "description": "ประกอบด้วย 1.วัดมเหยงคณ์ 2.วัดช้าง 3.วัดใหญ่ชัยมงคล 4.วัดกษัตราธิราชวรวิหาร 5.วัดภูเขาทอง 6.วัดใหม่คลองสระบัว 7.วัดธรรมิกราช",
    "imgpath": "assets/img/backgrounds/img1.png"
   
  },
  {
    "id": 602,
    "category": "VisitTempleTrip",
    "title": "Temple Trip 3",
    "description": "ประกอบด้วย 1.พระราชวังโบราณ 2.วัดใหม่ไชยวิชิต 3.วัดหน้าพระเมรุ 4.วัดมงกุฏ 5.วัดแม่นางปลื้ม 6.วัดอินทราราม 7.วัดญาณเสน",
    "imgpath": "assets/img/backgrounds/img1.png"
   
  }
]

